[
  {
    "name": "Dreambaby Bree",
    "address": "Regenboogstraat 12, 3960 Bree, België",
    "postalCode": "3960",
    "city": "Bree",
    "country": "België",
    "website": "https://www.dreambaby.be",
    "category": "Babywinkel",
    "lat": 51.1418942,
    "lng": 5.632484,
    "place_id": "0x47c0d3dd34324f01:0x93fda464b62e1fe2"
  },
  {
    "name": "Dreambaby Brugge",
    "address": "Blankenbergsesteenweg 420, 8000 Brugge, België",
    "postalCode": "8000",
    "city": "Brugge",
    "country": "België",
    "website": "https://www.dreambaby.be",
    "category": "Babywinkel",
    "lat": 51.2338219,
    "lng": 3.2127283,
    "place_id": "0x47c3572a63b8253b:0xc03878a4e0bb8154"
  },
  {
    "name": "Dreambaby Denderleeuw",
    "address": "Kasteelstraat 28-30, 9470 Denderleeuw, België",
    "postalCode": "9470",
    "city": "Denderleeuw",
    "country": "België",
    "website": "https://www.dreambaby.be",
    "category": "Babywinkel",
    "lat": 50.8843903,
    "lng": 4.0665468,
    "place_id": "0x47c3bc6eccedc535:0xea1b0a70ac6a75a3"
  },
  {
    "name": "Dreambaby Dilbeek",
    "address": "Ninoofsesteenweg 629, 1700 Dilbeek, België",
    "postalCode": "1700",
    "city": "Dilbeek",
    "country": "België",
    "website": "https://www.dreambaby.be",
    "category": "Babywinkel",
    "lat": 50.855497,
    "lng": 4.2458365,
    "place_id": "0x47c3c12310b37c0f:0xdc1324701924c388"
  },
  {
    "name": "Dreambaby Gent",
    "address": "Corneel Heymanslaan 17, 9000 Gent, België",
    "postalCode": "9000",
    "city": "Gent",
    "country": "België",
    "website": "https://www.dreambaby.be",
    "category": "Babywinkel",
    "lat": 51.0658568,
    "lng": 3.7253367,
    "place_id": "0x47c373fa0c11f1c5:0xe199f90958a60fe5"
  },
  {
    "name": "Dreambaby Halle",
    "address": "Edingensesteenweg 196, 1500 Halle, België",
    "postalCode": "1500",
    "city": "Halle",
    "country": "België",
    "website": "https://www.dreambaby.be",
    "category": "Babywinkel",
    "lat": 50.7305379,
    "lng": 4.2403173,
    "place_id": "0x47c3c852183c0855:0x2f85033260ad4eac"
  },
  {
    "name": "Dreambaby Herstal",
    "address": "Rue des Naiveux 14, 4040 Herstal, België",
    "postalCode": "4040",
    "city": "Herstal",
    "country": "België",
    "website": "https://www.dreambaby.be",
    "category": "Babywinkel",
    "lat": 50.6790081,
    "lng": 5.6244854,
    "place_id": "0x47c0f1b56174cc09:0xc8f568090f32934"
  },
  {
    "name": "Dreambaby Jemappes",
    "address": "Avenue Maréchal Foch 934, 7012 Jemappes, België",
    "postalCode": "7012",
    "city": "Jemappes",
    "country": "België",
    "website": "https://www.dreambaby.be",
    "category": "Babywinkel",
    "lat": 50.448422,
    "lng": 3.8894392,
    "place_id": "0x47c25b715e8ae571:0x9c0c6e11fbca222b"
  },
  {
    "name": "Dreambaby Kuurne",
    "address": "Ringlaan 6, 8520 Kuurne, België",
    "postalCode": "8520",
    "city": "Kuurne",
    "country": "België",
    "website": "https://www.dreambaby.be",
    "category": "Babywinkel",
    "lat": 50.8597083,
    "lng": 3.273329,
    "place_id": "0x47c33a549a935757:0x679a6a371ca5c447"
  },
  {
    "name": "Dreambaby La Louvière",
    "address": "Rue de la Franco-Belge 228, 7100 La Louvière, België",
    "postalCode": "7100",
    "city": "La Louvière",
    "country": "België",
    "website": "https://www.dreambaby.be",
    "category": "Babywinkel",
    "lat": 50.4791337,
    "lng": 4.1911631,
    "place_id": "0x47c2379df42e8f5d:0x7199b3e66c3b6409"
  },
  {
    "name": "Dreambaby Lede",
    "address": "Wichelsesteenweg 194, 9340 Lede, België",
    "postalCode": "9340",
    "city": "Lede",
    "country": "België",
    "website": "https://www.dreambaby.be",
    "category": "Babywinkel",
    "lat": 50.967285,
    "lng": 3.9447388,
    "place_id": "0x47c3a2a049dbcbbd:0xb1b8efc13fd0aae3"
  },
  {
    "name": "Dreambaby Leuven",
    "address": "Diestsesteenweg 60, 3000 Leuven, België",
    "postalCode": "3000",
    "city": "Leuven",
    "country": "België",
    "website": "https://www.dreambaby.be",
    "category": "Babywinkel",
    "lat": 50.8778164,
    "lng": 4.7016456,
    "place_id": "0x47c160cfa17a85cd:0x7c19ed06df398966"
  },
  {
    "name": "Dreambaby Lier",
    "address": "Antwerpsesteenweg 342, 2500 Lier, België",
    "postalCode": "2500",
    "city": "Lier",
    "country": "België",
    "website": "https://www.dreambaby.be",
    "category": "Babywinkel",
    "lat": 51.1192781,
    "lng": 4.5616874,
    "place_id": "0x47c3fb905078b52d:0x5b4945eb74d274c4"
  },
  {
    "name": "Dreambaby Lochristi",
    "address": "Antwerpsesteenweg 36, 9080 Lochristi, België",
    "postalCode": "9080",
    "city": "Lochristi",
    "country": "België",
    "website": "https://www.dreambaby.be",
    "category": "Babywinkel",
    "lat": 51.0998499,
    "lng": 3.8461265,
    "place_id": "0x47c377bf2e513117:0x9ced78a57dffab70"
  },
  {
    "name": "Dreambaby Mechelen",
    "address": "Liersesteenweg 432, 2800 Mechelen, België",
    "postalCode": "2800",
    "city": "Mechelen",
    "country": "België",
    "website": "https://www.dreambaby.be",
    "category": "Babywinkel",
    "lat": 51.0347769,
    "lng": 4.4690219,
    "place_id": "0x47c3e5bbd44f43cb:0x8f818cc4dabd4ebf"
  },
  {
    "name": "Dreambaby Merksem",
    "address": "Bredabaan 811, 2170 Merksem, België",
    "postalCode": "2170",
    "city": "Merksem",
    "country": "België",
    "website": "https://www.dreambaby.be",
    "category": "Babywinkel",
    "lat": 51.2491564,
    "lng": 4.4442091,
    "place_id": "0x47c3f7e571064c3d:0x17102b66dbe996d7"
  },
  {
    "name": "Dreambaby Meslin-l'Évêque",
    "address": "Chaussée de Bruxelles 335, 7822 Meslin-l'Évêque, België",
    "postalCode": "7822",
    "city": "Meslin-l'Évêque",
    "country": "België",
    "website": "https://www.dreambaby.be",
    "category": "Babywinkel",
    "lat": 50.6551081,
    "lng": 3.8525151,
    "place_id": "0x47c3aae14c1ad2c9:0x5d74e76582e3985f"
  },
  {
    "name": "Dreambaby Mol",
    "address": "Molderdijk 65, 2400 Mol, België",
    "postalCode": "2400",
    "city": "Mol",
    "country": "België",
    "website": "https://www.dreambaby.be",
    "category": "Babywinkel",
    "lat": 51.2377662,
    "lng": 5.1962273,
    "place_id": "0x47c135b2d953a751:0x4faed3d2aa3dbe78"
  },
  {
    "name": "Dreambaby Namen",
    "address": "Chaussée de Liège 477, 5100 Namen, België",
    "postalCode": "5100",
    "city": "Namen",
    "country": "België",
    "website": "https://www.dreambaby.be",
    "category": "Babywinkel",
    "lat": 50.4270746,
    "lng": 4.900257,
    "place_id": "0x47c198e2ee0cbfaf:0xfa4448633c3d9427"
  },
  {
    "name": "Dreambaby Oostende",
    "address": "Torhoutsesteenweg 694, 8400 Oostende, België",
    "postalCode": "8400",
    "city": "Oostende",
    "country": "België",
    "website": "https://www.dreambaby.be",
    "category": "Babywinkel",
    "lat": 51.2152889,
    "lng": 2.9335801,
    "place_id": "0x47dcaf22d006b82d:0x7f31b34e735fb50"
  },
  {
    "name": "Dreambaby Roeselare",
    "address": "Brugsesteenweg 353, 8800 Roeselare, België",
    "postalCode": "8800",
    "city": "Roeselare",
    "country": "België",
    "website": "https://www.dreambaby.be",
    "category": "Babywinkel",
    "lat": 50.9368345,
    "lng": 3.1335642,
    "place_id": "0x47c335e31abda5bb:0xd30d4a6bf2801c6b"
  },
  {
    "name": "Dreambaby Doornik",
    "address": "Chaussée de Bruxelles 376, 7500 Doornik, België",
    "postalCode": "7500",
    "city": "Doornik",
    "country": "België",
    "website": "https://www.dreambaby.be",
    "category": "Babywinkel",
    "lat": 50.5893059,
    "lng": 3.3720719,
    "place_id": "0x47c2e04c1a31f57b:0x331984cb044e5bd7"
  },
  {
    "name": "Dreambaby Turnhout",
    "address": "Nieuwe Kaai 31, 2300 Turnhout, België",
    "postalCode": "2300",
    "city": "Turnhout",
    "country": "België",
    "website": "https://www.dreambaby.be",
    "category": "Babywinkel",
    "lat": 51.3233812,
    "lng": 4.948461,
    "place_id": "0x47c6b23bf84d3fcf:0x428b2d0cea834149"
  },
  {
    "name": "Dreambaby Waterloo",
    "address": "Chaussée de Bruxelles 319, 1410 Waterloo, België",
    "postalCode": "1410",
    "city": "Waterloo",
    "country": "België",
    "website": "https://www.dreambaby.be",
    "category": "Babywinkel",
    "lat": 50.7032864,
    "lng": 4.4084276,
    "place_id": "0x47c3d1c48899bb69:0xf08e35a3f378debf"
  },
  {
    "name": "Dreambaby Wilrijk",
    "address": "Boomsesteenweg 546, 2610 Wilrijk, België",
    "postalCode": "2610",
    "city": "Wilrijk",
    "country": "België",
    "website": "https://www.dreambaby.be",
    "category": "Babywinkel",
    "lat": 51.1642899,
    "lng": 4.3879102,
    "place_id": "0x47c3f137a1aa7011:0x87daa7908046be97"
  },
  {
    "name": "Dreambaby Zaventem",
    "address": "Leuvensesteenweg 615, 1930 Zaventem, België",
    "postalCode": "1930",
    "city": "Zaventem",
    "country": "België",
    "website": "https://www.dreambaby.be",
    "category": "Babywinkel",
    "lat": 50.8850775,
    "lng": 4.4862048,
    "place_id": "0x47c3dd5166f647af:0xc458ef30945a84b2"
  }
]